     2.11           OBSERVATION DATA    M (MIXED)           RINEX VERSION / TYPE
teqc  2017Sep15     UNAVCO Archive Ops  20180115 00:26:28UTCPGM / RUN BY / DATE
Solaris x86 5.10|AMD64|cc SC5.8 -xarch=amd64|=+|=+          COMMENT
BIT 2 OF LLI FLAGS DATA COLLECTED UNDER A/S CONDITION       COMMENT
AB43                                                        MARKER NAME
                                                            MARKER NUMBER
Glen Mattioli       UNAVCO                                  OBSERVER / AGENCY
3016396             SEPT POLARX5        5.1.1               REC # / TYPE / VERS
0220373032          TRM59800.80     SCIT                    ANT # / TYPE
 -2449678.5255 -2313243.0655  5397464.0654                  APPROX POSITION XYZ
        0.0083        0.0000        0.0000                  ANTENNA: DELTA H/E/N
     1     1                                                WAVELENGTH FACT L1/2
    20    L1    L2    C1    P2    P1    S1    S2    C2    L5# / TYPES OF OBSERV
          C5    S5    L6    C6    S6    L7    C7    S7    L8# / TYPES OF OBSERV
          C8    S8                                          # / TYPES OF OBSERV
input file: ab430140.18_a.sbf                               COMMENT
RINEX file created by UNAVCO GPS Archive.                   COMMENT
For more information contact archive-gps@unavco.org         COMMENT
Monument ID: 21361                                          COMMENT
UNAVCO 4-char name:   AB43                                  COMMENT
4-char name from Log or data file: AB43                     COMMENT
Monument location: 58.19884205 -136.64080781 26.9246        COMMENT
Visit ID: 119725                                            COMMENT
                                                            COMMENT
Cape_Spencer_Coast_Guard_Station_AK_2007_CGPS               COMMENT
                                                            COMMENT
doi:10.7283/T5SF2T6T                                        COMMENT
End of DB comments                                          COMMENT
 SNR is mapped to RINEX snr flag value [0-9]                COMMENT
  L1 & L2: min(max(int(snr_dBHz/6), 0), 9)                  COMMENT
  2018     1    14     0     0    0.0000000     GPS         TIME OF FIRST OBS
    18                                                      LEAP SECONDS
                                                            END OF HEADER
 18  1 14  0  0  0.0000000  0 24G23G08E11G30G02E19G16G07G05E04G27E30
                                E07R17R18R02G28R12G09E20R10R11R01R08
 120529047.026 7  93918740.25045  22935914.920    22935910.989    22935914.178
        45.750          32.250


 131275014.763 5 102292234.100 5  24980803.731    24980805.823    24980803.217
        35.250          33.750    24980806.758    98030058.448 6  24980807.133
        41.500

 144920108.389 6                  27577380.574
        37.000                                   108219561.010 6  27577381.389
        39.500   117629951.501 6  27577378.783          38.500   111042667.091 6
  27577375.346          36.000   109631113.129 6  27577377.288          40.750
 114418107.702 8  89156982.395 7  21773033.161    21773033.715    21773032.491
        49.250          45.750    21773034.269    85442126.205 8  21773034.479
        52.000

 132154999.087 6 102977898.44043  25148263.592    25148259.795    25148262.622
        39.000          18.500


 126185305.233 7                  24012260.503
        47.000                                    94229304.183 7  24012261.734
        47.250   102423146.722 8  24012260.236          50.250    96687449.298 8
  24012258.995          50.000    95458384.314 8  24012259.837          51.750
 119123096.236 5  92823214.40541  22668362.057    22668359.727    22668361.141
        34.250          11.250


 108310509.121 9  84397808.652 8  20610795.187    20610792.933    20610794.705
        54.250          49.000    20610793.130


 118118336.397 8  92040262.684 7  22477170.190    22477168.804    22477169.918
        48.500          42.750    22477169.179


 147664484.324 6                  28099616.469
        38.000                                   110268944.140 6  28099619.233
        39.500   119857539.282 6  28099618.903          41.250   113145511.373 6
  28099612.868          39.000   111707230.334 7  28099616.938          42.250
 124097252.756 6  96699160.111 6  23614916.825    23614917.728    23614916.258
        41.000          41.250    23614918.261    92670047.040 7  23614918.161
        46.500

 126314446.257 6                  24036830.956
        36.000                                    94325762.665 6  24036833.931
        38.000   102527981.429 6  24036830.626          40.750    96786420.228 6
  24036830.472          40.250    95556096.522 7  24036831.747          42.250
 145260122.849 6                  27642085.770
        40.000                                   108473465.887 6  27642091.030
        40.500   117905938.408 7  27642087.037          43.000   111303202.659 7
  27642088.291          42.500   109888337.349 7  27642089.553          44.500
 131468396.811 6 102253213.360 6  24568014.237    24568018.013    24568014.000
        39.250          39.500    24568017.736


 121438122.875 7  94451885.858 7  22749450.501    22749454.027    22749450.183
        42.750          42.750    22749454.014


 120033216.916 7  93359187.667 7  22494170.537    22494174.367    22494170.568
        46.750          43.750    22494174.027


 133021609.53815                  25313170.953
        35.750


 129964212.725 6                  24329574.815                    24329574.404
        40.250


 108338405.915 8  84419557.593 8  20616109.654    20616109.877    20616109.176
        52.250          50.000    20616110.114    80902074.914 9  20616110.524
        54.750

  69815278.955 7                  13285404.513
        45.000


 103463147.589 9  80471402.034 7  19409413.120    19409418.419    19409412.780
        54.000          47.000    19409418.898


 108776336.888 8  84603849.238 8  20355997.890    20356001.451    20355998.149
        53.250          50.500    20356001.567


 103463116.821 8  80471345.709 7  19354912.624    19354917.858    19354912.812
        52.750          46.500    19354917.044


 111476108.060 8  86703664.548 8  20817376.815    20817379.686    20817377.132
        51.500          49.250    20817379.583


 18  1 14  0  0 15.0000000  0 24G23G08E11G30G02E19G16G07G05E04G27E30
                                E07R17R18R02G28R12G09E20R10R11R01R08
 120576193.918 7  93955478.06745  22944886.568    22944882.794    22944885.826
        45.750          32.250


 131225706.775 6 102253812.375 5  24971420.602    24971422.574    24971420.088
        36.250          34.750    24971423.057    97993237.597 6  24971423.029
        40.000

 144946732.608 6                  27582446.298
        36.250                                   108239442.745 6  27582446.921
        37.500   117651562.047 6  27582445.114          38.000   111063067.529 6
  27582441.588          36.500   109651254.216 6  27582444.818          39.750
 114378062.381 8  89125778.245 7  21765413.049    21765413.281    21765412.383
        50.000          45.750    21765413.688    85412222.233 8  21765414.148
        52.000

 132193345.753 5 103007778.94643  25155560.229    25155557.130    25155559.241
        34.750          19.500


 126169838.289 7                  24009317.237
        47.000                                    94217754.192 7  24009318.476
        47.250   102410592.384 8  24009317.037          50.500    96675598.006 8
  24009315.675          49.750    95446683.673 8  24009316.579          51.500
 119162904.682 5  92854233.97442  22675937.513    22675935.116    22675936.583
        34.250          12.500


 108293118.908 9  84384257.842 8  20607485.914    20607483.629    20607485.432
        54.500          49.000    20607483.861


 118092898.808 8  92020441.198 7  22472329.785    22472328.296    22472329.513
        49.000          42.750    22472328.680


 147619911.435 6                  28091134.385
        37.500                                   110235659.232 6  28091135.517
        37.750   119821359.922 6  28091135.482          40.750   113111358.141 6
  28091131.656          40.500   111673511.251 7  28091136.061          42.000
 124065709.750 6  96674581.140 6  23608914.581    23608915.305    23608914.014
        41.250          41.250    23608915.498    92646492.210 7  23608915.703
        46.250

 126351947.904 5                  24043966.959
        35.750                                    94353767.135 6  24043970.099
        37.750   102558421.063 6  24043966.911          41.000    96815155.256 6
  24043966.815          39.750    95584466.270 6  24043968.122          41.750
 145307203.402 6                  27651045.269
        40.000                                   108508623.417 6  27651050.712
        40.250   117944153.130 7  27651045.946          42.500   111339277.324 7
  27651047.736          43.000   109923953.446 7  27651048.605          44.750
 131523668.703 6 102296202.602 6  24578342.611    24578346.691    24578343.380
        39.250          38.250    24578346.302


 121456819.259 7  94466427.506 7  22752951.837    22752956.659    22752952.548
        43.000          43.000    22752956.472


 119972972.620 7  93312330.994 7  22482881.067    22482884.503    22482881.317
        46.500          43.500    22482884.270


 132965805.217 5                  25302552.221
        30.500


 129898938.410 6                  24317354.407                    24317354.868
        37.000


 108364919.534 8  84440217.551 8  20621155.053    20621155.290    20621154.571
        52.750          50.000    20621155.549    80921874.042 9  20621155.884
        54.750

  69839697.466 7                  13290051.268
        45.000


 103483161.050 9  80486968.061 7  19413167.572    19413172.956    19413167.246
        54.000          47.250    19413173.162


 108733752.620 8  84570728.143 8  20348028.611    20348032.458    20348028.902
        53.250          50.750    20348032.413


 103460414.831 8  80469244.160 7  19354407.204    19354412.541    19354407.338
        52.750          46.250    19354411.503


 111527312.981 8  86743490.581 8  20826938.793    20826941.865    20826939.481
        51.750          49.500    20826941.923


 18  1 14  0  0 30.0000000  0 24G23G08E11G30G02E19G16G07G05E04G27E30
                                E07R17R18R02G28R12G09E20R10R11R01R08
 120623406.194 7  93992266.83645  22953870.441    22953867.047    22953869.695
        45.750          32.250


 131176436.532 6 102215420.013 5  24962044.332    24962046.903    24962043.809
        36.250          34.000    24962048.213    97956444.899 6  24962047.608
        41.500

 144973448.014 5                  27587529.777
        35.250                                   108259392.564 6  27587528.799
        36.750   117673246.625 5  27587527.458          33.000   111083537.802 6
  27587527.683          38.000   109671464.256 6  27587528.449          40.500
 114338098.983 8  89094637.956 7  21757808.010    21757808.474    21757807.349
        50.000          46.000    21757808.868    85382379.445 8  21757809.359
        52.000

 132231750.270 5 103037704.53942  25162867.915    25162865.040    25162866.909
        34.250          17.500


 126154462.107 7                  24006391.194
        47.500                                    94206271.982 7  24006392.487
        47.250   102398111.724 8  24006391.039          50.250    96663816.259 8
  24006389.748          49.750    95435051.695 8  24006390.590          51.750
 119202833.842 5  92885347.59741  22683536.087    22683533.368    22683535.193
        35.000          11.750


 108275836.050 9  84370790.689 8  20604197.125    20604194.768    20604196.643
        54.750          49.250    20604194.965


 118067600.518 8  92000728.250 7  22467515.672    22467514.151    22467515.400
        49.000          42.750    22467514.290


 147575357.863 6                  28082656.334
        37.250                                   110202388.645 6  28082656.446
        37.000   119785196.403 7  28082658.271          42.250   113077219.786 6
  28082653.135          36.500   111639806.800 6  28082657.947          39.500
 124034289.313 6  96650097.714 6  23602935.450    23602936.143    23602934.883
        41.500          41.250    23602936.590    92623028.926 7  23602936.643
        46.250

 126389501.720 5                  24051113.264
        35.750                                    94381810.564 6  24051116.369
        37.750   102588903.054 6  24051113.319          40.750    96843930.260 6
  24051112.995          39.500    95612875.485 6  24051114.440          41.750
 145354304.243 6                  27660008.478
        40.500                                   108543796.119 6  27660013.510
        39.750   117982384.297 7  27660009.061          42.750   111375367.569 6
  27660010.190          41.500   109959584.919 7  27660011.537          43.750
 131579024.128 6 102339256.832 6  24588688.369    24588691.667    24588687.958
        39.000          38.500    24588691.438


 121475713.799 7  94481123.264 7  22756491.851    22756496.173    22756491.998
        43.000          43.250    22756495.775


 119912795.112 7  93265526.256 7  22471604.134    22471607.087    22471604.121
        46.750          42.750    22471606.967


 132910004.365 5 103566244.3155   25291934.236    25291933.860    25291933.704
        31.500           4.750


 129833686.633 6                  24305139.252                    24305139.235
        36.500


 108391548.647 8  84460967.506 8  20626222.296    20626222.640    20626221.818
        52.750          50.000    20626222.922    80941759.411 9  20626223.247
        54.750

  69864202.857 7                  13294714.254
        45.500


 103503337.123 9  80502660.567 7  19416952.533    19416957.787    19416952.184
        54.000          47.000    19416958.472


 108691299.690 8  84537709.196 8  20340084.207    20340087.844    20340084.409
        53.500          50.750    20340087.875


 103457909.227 8  80467295.355 7  19353938.549    19353943.872    19353938.509
        52.750          46.500    19353942.987


 111578643.054 8  86783413.943 8  20836524.523    20836527.305    20836524.961
        51.750          49.500    20836527.269


 18  1 14  0  0 45.0000000  0 24G23G08E11G30G02E19G16G07G05E04G27E30
                                E07R17R18R02G28R12G09E20R10R11R01R08
 120670678.251 7  94029102.18745  22962866.376    22962862.673    22962865.625
        45.750          32.000


 131127199.595 5 102177053.550 5  24952674.789    24952677.244    24952674.271
        35.500          33.500    24952677.601    97919677.060 6  24952676.912
        39.750

 145000249.169 5                  27592628.807
        34.500                                   108279406.400 5  27592629.179
        33.250   117695000.791 5  27592627.096          34.500   111104073.755 6
  27592628.627          40.250   109691739.147 6  27592628.333          40.250
 114298212.473 8  89063557.558 7  21750217.836    21750218.413    21750217.166
        49.500          46.000    21750219.200    85352594.065 8  21750219.150
        52.000

 132270207.317 6 103067671.03542  25170186.264    25170183.267    25170185.236
        36.250          17.500


 126139171.604 7                  24003481.484
        47.250                                    94194853.750 7  24003482.773
        47.250   102385700.602 8  24003481.315          50.250    96652100.161 8
  24003480.069          49.750    95423484.529 8  24003480.898          51.500
 119242878.214 5  92916550.96642  22691156.592    22691153.712    22691155.747
        34.750          12.000


 108258655.339 9  84357403.127 8  20600927.896    20600925.370    20600927.414
        54.500          49.000    20600925.606


 118042436.618 8  91981120.029 7  22462727.197    22462725.453    22462726.916
        48.750          42.500    22462725.837


 147530818.581 6                  28074179.783
        36.500                                   110169128.850 6  28074180.798
        37.000   119749044.400 6  28074182.239          40.250   113043092.250 6
  28074179.750          38.000   111606113.119 6  28074181.839          40.500
 124002986.567 6  96625705.990 6  23596978.492    23596979.408    23596977.925
        41.000          40.500    23596980.123    92599653.533 7  23596980.060
        46.000

 126427102.379 5                  24058268.407
        35.500                                    94409888.960 6  24058271.311
        37.500   102619423.055 6  24058268.512          40.750    96872741.127 6
  24058268.326          39.250    95641320.116 6  24058269.615          41.500
 145401419.968 6                  27668974.060
        40.000                                   108578979.909 6  27668979.942
        41.000   118020627.552 7  27668975.180          42.750   111411469.219 7
  27668976.045          42.250   109995227.639 7  27668977.405          44.500
 131634457.406 6 102382371.569 6  24599046.239    24599050.981    24599046.575
        37.750          37.000    24599050.936


 121494800.841 7  94495968.727 7  22760067.846    22760072.056    22760068.114
        43.500          43.000    22760071.846


 119852679.738 7  93218769.846 7  22460338.459    22460341.336    22460338.526
        46.750          42.750    22460341.372


 132854202.409 6 103522762.46643  25281314.701    25281314.987    25281313.914
        39.750          18.750


 129768452.456 6                  24292926.139                    24292926.063
        38.000


 108418287.950 8  84481803.316 8  20631310.674    20631310.947    20631310.196
        52.500          50.000    20631311.273    80961727.066 9  20631311.572
        54.750

  69888789.810 7                  13299393.295
        45.250


 103523670.191 8  80518475.163 7  19420766.660    19420772.303    19420766.570
        53.750          46.750    19420772.688


 108648973.135 8  84504788.530 8  20332163.478    20332166.838    20332163.778
        53.500          50.500    20332166.704


 103455594.835 8  80465495.252 7  19353505.312    19353510.948    19353505.513
        52.750          46.500    19353510.009


 111630092.814 8  86823430.392 8  20846132.444    20846135.414    20846132.748
        51.500          49.500    20846135.579


 18  1 14  0  1  0.0000000  0 24G23G08E11G30G02E19G16G07G05E04G27E30
                                E07R17R18R02G28R12G09E20R10R11R01R08
 120718009.960 7  94065984.03145  22971873.375    22971869.944    22971872.624
        46.000          32.500


 131077996.069 6 102138713.124 5  24943312.182    24943314.762    24943311.682
        36.750          34.750    24943316.291    97882934.193 6  24943313.286
        39.250

 145027135.759 6                  27597747.570
        37.000                                   108299484.031 6  27597747.804
        38.750   117716824.354 6  27597745.474          37.500   111124675.137 6
  27597743.191          36.750   109712078.657 6  27597744.207          40.750
 114258402.947 8  89032537.150 7  21742642.545    21742642.992    21742641.870
        49.750          46.000    21742643.404    85322866.184 8  21742643.546
        52.250

 132308716.034 6 103097677.81442  25177513.967    25177511.110    25177512.912
        37.250          17.250


 126123966.823 7                  24000588.212
        47.000                                    94183499.538 7  24000589.429
        47.250   102373359.064 8  24000587.905          50.000    96640449.749 8
  24000586.699          50.250    95411982.219 8  24000587.528          51.750
 119283037.425 5  92947843.80642  22698798.078    22698795.618    22698797.283
        34.250          12.000


 108241576.724 9  84344095.122 8  20597677.825    20597675.432    20597677.343
        54.500          48.750    20597675.781


 118017407.508 8  91961616.823 7  22457964.282    22457962.341    22457964.001
        49.000          42.000    22457962.507


 147486293.705 6                  28065707.176
        36.000                                   110135879.780 6  28065710.217
        39.250   119712904.072 6  28065709.060          41.750   113008975.727 6
  28065706.003          39.250   111572430.332 7  28065708.432          42.250
 123971801.790 6  96601406.173 6  23591044.330    23591045.260    23591043.758
        40.750          40.250    23591045.644    92576366.216 7  23591045.724
        46.000

 126464749.569 5                  24065432.418
        35.000                                    94438002.083 6  24065435.510
        37.000   102649980.811 6  24065432.344          40.250    96901587.655 6
  24065432.292          39.250    95669799.944 6  24065433.671          41.250
 145448550.417 6                  27677943.081
        40.250                                   108614174.687 6  27677949.128
        40.500   118058882.769 7  27677943.968          43.000   111447582.104 6
  27677944.797          41.750   110030881.471 7  27677946.073          44.250
 131689967.733 6 102425546.338 6  24609419.872    24609424.520    24609419.658
        36.500          36.000    24609424.556


 121514080.081 7  94510963.705 7  22763679.463    22763683.821    22763679.476
        43.500          43.500    22763683.816


 119792626.405 7  93172061.718 7  22449084.365    22449086.849    22449084.500
        46.750          42.250    22449086.858


 132798398.664 4 103479279.10941  25270696.445    25270695.394    25270695.466
        29.500           8.250


 129703236.028 6                  24280718.231                    24280718.495
        38.250


 108445137.224 8  84502724.822 8  20636419.980    20636420.185    20636419.502
        52.500          49.750    20636420.445    80981776.843 9  20636420.851
        55.000

  69913458.199 7                  13304087.402
        45.000


 103544159.730 9  80534411.478 7  19424610.712    19424615.979    19424610.358
        54.000          47.000    19424616.597


 108606773.139 8  84471966.324 8  20324266.490    20324269.724    20324266.709
        53.750          50.750    20324269.697


 103453471.624 8  80463843.869 7  19353108.192    19353113.730    19353108.286
        52.750          46.750    19353113.167


 111681661.633 8  86863539.465 8  20855762.594    20855765.349    20855763.086
        51.500          49.500    20855765.268


 18  1 14  0  1 15.0000000  0 24G23G08E11G30G02E19G16G07G05E04G27E30
                                E07R17R18R02G28R12G09E20R10R11R01R08
 120765407.666 7  94102917.29445  22980892.650    22980889.586    22980891.890
        45.500          32.500


 131028832.829 5 102100404.121 6  24933956.344    24933959.344    24933955.844
        34.500          37.000    24933961.204    97846221.452 6  24933958.699
        39.750

 145054114.210 6                  27602881.029
        38.250                                   108319630.291 6  27602882.130
        39.500   117738722.480 6  27602879.627          38.750   111145346.884 6
  27602875.219          37.000   109732487.665 6  27602878.503          40.750
 114218677.077 8  89001581.929 7  21735082.482    21735083.412    21735081.807
        49.000          45.750    21735083.850    85293200.762 8  21735083.930
        52.250

 132347282.872 6 103127729.87542  25184853.353    25184850.232    25184852.285
        38.500          17.000


 126108854.436 7                  23997712.283
        47.250                                    94172214.317 7  23997713.621
        47.750   102361092.515 8  23997712.151          50.250    96628870.128 8
  23997710.887          50.000    95400549.796 8  23997711.729          52.000
 119323317.594 5  92979230.93442  22706464.012    22706460.672    22706463.176
        35.000          12.000


 108224606.837 9  84330871.836 8  20594448.522    20594446.205    20594448.040
        54.250          49.000    20594446.514


 117992519.871 8  91942223.851 6  22453228.191    22453226.084    22453227.910
        48.500          41.750    22453226.388


 147441789.858 6                  28057238.297
        37.750                                   110102646.381 6  28057239.912
        38.000   119676780.798 6  28057240.726          41.500   112974875.393 6
  28057237.092          38.250   111538763.460 6  28057240.228          41.000
 123940741.825 6  96577203.603 6  23585133.687    23585134.572    23585133.111
        40.250          40.000    23585134.724    92553172.107 7  23585134.969
        45.750

 126502449.634 5                  24072606.484
        35.000                                    94466154.730 6  24072609.566
        37.000   102680581.509 6  24072606.468          40.000    96930474.711 6
  24072606.469          39.000    95698319.795 6  24072607.750          41.000
 145495701.966 6                  27686916.040
        40.750                                   108649385.258 6  27686921.639
        40.500   118097155.127 6  27686915.728          41.750   111483711.219 7
  27686917.805          42.000   110066551.311 7  27686918.763          44.250
 131745561.408 5 102468785.838 5  24619808.380    24619812.978    24619809.158
        34.750          35.250    24619812.603


 121533557.965 7  94526113.165 7  22767327.593    22767332.407    22767328.098
        43.250          43.000    22767332.460


 119732642.628 7  93125407.696 7  22437843.376    22437845.619    22437843.269
        46.750          42.250    22437845.703


 132742600.329 5 103435800.0244   25260077.423    25260077.454    25260076.641
        35.500           3.750


 129638044.042 6                  24268513.908                    24268514.418
        36.750


 108472102.914 8  84523737.049 8  20641551.226    20641551.556    20641550.744
        52.250          49.500    20641551.887    81001913.555 9  20641552.257
        54.750

  69938214.507 7                  13308798.334
        45.250


 103564812.406 9  80550474.675 7  19428485.164    19428490.507    19428484.788
        54.000          47.000    19428491.098


 108564706.588 8  84439247.911 8  20316394.393    20316397.596    20316394.648
        53.750          50.750    20316397.470


 103451546.404 8  80462346.489 7  19352748.127    19352753.571    19352748.212
        52.500          46.500    19352752.735


 111733356.222 8  86903746.356 8  20865416.106    20865419.169    20865416.741
        51.500          49.750    20865419.017


 18  1 14  0  1 30.0000000  0 24G23G08E11G30G02E19G16G07G05E04G27E30
                                E07R17R18R02G28R12G09E20R10R11R01R08
 120812864.620 7  94139896.72745  22989923.889    22989920.356    22989923.116
        45.750          32.250


 130979704.155 5 102062122.105 5  24924606.222    24924610.148    24924605.713
        34.250          32.500    24924610.353    97809534.473 6  24924610.885
        40.250

 145081177.738 6                  27608030.687
        36.750                                   108339840.053 5  27608029.468
        35.500   117760689.538 5  27608027.398          35.000   111166083.945 6
  27608028.249          38.250   109752961.067 6  27608028.957          40.000
 114179028.525 8  88970686.954 7  21727537.939    21727538.493    21727537.269
        49.000          45.500    21727538.761    85263593.078 8  21727539.042
        52.000

 132385900.842 6 103157821.80442  25192202.494    25192198.528    25192201.435
        38.250          17.000


 126093828.003 7                  23994852.911
        47.750                                    94160993.283 7  23994854.187
        47.500   102348895.733 8  23994852.702          50.250    96617356.368 8
  23994851.443          50.000    95389182.399 8  23994852.290          51.750
 119363711.851 5  93010706.96742  22714150.094    22714147.273    22714149.200
        34.500          12.250


 108207739.101 9  84317728.148 8  20591238.713    20591236.379    20591238.231
        54.000          48.750    20591236.719


 117967767.066 8  91922935.967 6  22448517.733    22448515.519    22448517.456
        48.500          41.250    22448516.020


 147397300.659 6                  28048773.283
        39.500                                   110069423.974 6  28048773.888
        36.250   119640669.491 6  28048773.217          41.250   112940786.361 6
  28048774.847          41.000   111505107.738 6  28048773.667          41.750
 123909800.416 6  96553093.463 6  23579245.838    23579246.504    23579245.262
        40.250          39.750    23579247.403    92530066.551 7  23579247.084
        45.500

 126540195.872 5                  24079789.223
        34.750                                    94494341.826 6  24079792.336
        36.750   102711219.674 6  24079789.287          39.750    96959397.140 6
  24079789.306          38.750    95726874.558 6  24079790.649          40.750
 145542867.923 6                  27695891.183
        40.750                                   108684606.559 6  27695896.429
        40.250   118135439.178 7  27695891.989          42.250   111519851.356 7
  27695893.494          42.000   110102232.034 7  27695894.192          44.250
 131801231.286 5 102512084.638 5  24630212.125    24630215.682    24630212.255
        35.000          33.000    24630215.677


 121553227.579 7  94541411.737 7  22771013.050    22771016.907    22771012.857
        42.750          42.750    22771016.308


 119672722.134 7  93078802.871 7  22426614.087    22426616.213    22426614.132
        46.750          42.000    22426616.173


 132686801.349 6 103392320.41942  25249458.189    25249459.172    25249457.349
        38.750          17.250


 129572870.491 6                  24256313.808                    24256313.982
        38.750


 108499178.351 8  84544834.787 8  20646703.585    20646703.803    20646703.107
        52.000          49.500    20646703.996    81022132.223 9  20646704.549
        54.750

  69963052.094 7                  13313524.780
        45.500


 103585620.958 9  80566659.097 7  19432388.626    19432394.023    19432388.353
        54.000          46.750    19432394.676


 108522767.067 8  84406628.280 8  20308545.846    20308549.084    20308546.123
        53.500          50.750    20308548.843


 103449812.587 8  80460997.957 7  19352423.958    19352429.227    19352423.904
        52.500          46.500    19352428.467


 111785169.239 8  86944045.342 8  20875091.683    20875094.680    20875092.345
        51.250          49.500    20875094.635


 18  1 14  0  1 45.0000000  0 24G23G08E11G30G02E19G16G07G05E04G27E30
                                E07R17R18R02G28R12G09E20R10R11R01R08
 120860381.756 7  94176923.05345  22998965.889    22998962.883    22998965.120
        46.000          32.750


 130930610.823 6 102023867.543 5  24915265.953    24915267.701    24915265.435
        37.250          33.000    24915267.956    97772873.900 6  24915267.977
        41.750

 145108327.217 6                  27613196.735
        36.000                                   108360113.935 6  27613196.437
        36.500   117782726.450 6  27613193.298          36.500   111186886.782 6
  27613194.570          37.750   109773499.429 6  27613194.937          40.000
 114139458.505 8  88939853.191 7  21720008.134    21720008.487    21720007.464
        49.750          46.000    21720009.100    85234044.052 8  21720009.157
        52.000

 132424570.733 5 103187954.11742  25199560.794    25199557.346    25199559.788
        33.000          17.500


 126078888.751 7                  23992009.978
        47.500                                    94149837.347 7  23992011.325
        47.500   102336769.718 8  23992009.885          50.250    96605909.410 8
  23992008.581          49.750    95377880.952 8  23992009.459          51.750
 119404220.940 5  93042272.47141  22721859.090    22721855.982    22721858.277
        35.250          11.750


 108190974.755 9  84304665.036 8  20588048.429    20588046.197    20588047.947
        54.250          49.000    20588046.484


 117943150.847 8  91903754.479 6  22443833.516    22443831.012    22443833.235
        48.750          41.750    22443831.673


 147352827.370 6                  28040310.918
        40.250                                   110036213.466 6  28040313.562
        38.250   119604571.053 6  28040309.631          40.000   112906709.424 6
  28040310.514          41.500   111471464.017 7  28040310.144          43.000
 123878979.029 6  96529076.807 6  23573380.724    23573381.211    23573380.134
        40.250          40.000    23573382.146    92507050.602 7  23573382.038
        45.500

 126577989.216 5                  24086980.941
        35.000                                    94522564.117 6  24086984.211
        36.250   102741896.092 6  24086981.301          39.500    96988355.653 6
  24086981.320          38.250    95755464.960 6  24086982.453          40.250
 145590049.307 6                  27704868.943
        39.750                                   108719839.406 6  27704874.842
        40.000   118173735.720 7  27704870.277          42.500   111556003.310 6
  27704871.464          41.250   110137924.432 7  27704872.489          43.750
 131856977.881 5 102555443.065 5  24640629.081    24640633.885    24640629.649
        33.500          33.250    24640634.015


 121573089.742 7  94556860.083 7  22774733.614    22774737.771    22774733.901
        43.000          42.500    22774737.883


 119612866.529 7  93032248.546 7  22415396.945    22415399.232    22415397.016
        46.500          42.000    22415399.406


 132631002.284 6 103348840.96442  25238841.187    25238840.717    25238840.356
        36.250          12.750


 129507716.638 5                  24244115.368                    24244115.806
        33.000


 108526364.502 8  84566018.798 8  20651876.841    20651877.131    20651876.359
        52.000          49.750    20651877.457    81042433.564 9  20651877.913
        54.750

  69987971.930 7                  13318266.922
        45.500


 103606586.341 9  80582965.508 7  19436321.664    19436327.245    19436321.445
        54.000          47.000    19436327.705


 108480955.847 8  84374108.449 8  20300721.469    20300724.936    20300721.491
        53.500          50.750    20300724.797


 103448271.420 8  80459799.275 7  19352135.527    19352140.944    19352135.670
        52.750          46.500    19352140.063


 111837101.329 8  86984436.961 8  20884789.638    20884792.938    20884790.179
        51.250          49.250    20884792.827


 18  1 14  0  2  0.0000000  0 24G23G08E11G30G02E19G16G07G05E04G27E30
                                E07R17R18R02G28R12G09E20R10R11R01R08
 120907962.891 7  94213999.24945  23008020.627    23008017.425    23008019.858
        46.500          32.750


 130881557.648 6 101985644.380 5  24905931.277    24905932.860    24905930.754
        36.250          35.000    24905934.215    97736243.317 6  24905933.140
        39.750

 145135566.496 5                  27618379.833
        34.250                                   108380455.006 6  27618380.366
        36.750   117804836.283 6  27618378.166          36.750   111207758.394 5
  27618376.035          35.750   109794105.776 6  27618378.232          39.250
 114099971.213 8  88909083.864 7  21712493.793    21712494.298    21712493.118
        49.250          45.750    21712494.763    85204556.792 8  21712495.093
        52.250

 132463296.368 6 103218130.02243  25206929.258    25206926.928    25206928.257
        36.000          18.250


 126064040.797 7                  23989184.654
        47.250                                    94138749.588 7  23989185.840
        47.250   102324717.812 8  23989184.418          50.250    96594532.409 8
  23989183.141          50.000    95366648.574 8  23989183.983          51.750
 119444848.375 5  93073930.23442  22729589.590    22729586.951    22729588.759
        35.250          12.250


 108174317.784 9  84291685.583 8  20584878.714    20584876.491    20584878.232
        54.250          49.000    20584876.844


 117918675.164 8  91884682.517 6  22439176.084    22439173.351    22439175.803
        48.500          41.750    22439174.232


 147308374.172 6                  28031851.495
        38.750                                   110003017.910 6  28031854.452
        40.250   119568488.962 6  28031850.320          39.250   112872647.866 6
  28031852.629          41.500   111437835.457 7  28031851.262          43.750
 123848281.957 6  96505157.042 6  23567539.390    23567539.779    23567538.800
        40.250          39.250    23567540.271    92484127.496 7  23567540.677
        45.500

 126615833.447 5                  24094182.390
        34.250                                    94550824.419 6  24094185.683
        36.000   102772613.796 6  24094182.848          39.500    97017353.176 6
  24094182.917          38.250    95784093.871 6  24094184.013          40.250
 145637249.944 6                  27713851.250
        39.250                                   108755086.593 6  27713856.779
        40.500   118212047.958 7  27713852.674          42.750   111592169.987 7
  27713853.525          42.000   110173631.366 7  27713854.488          44.250
 131912804.659 5 102598863.890 5  24651061.861    24651066.656    24651061.897
        32.000          33.250    24651066.701


 121593148.398 7  94572461.231 7  22778491.588    22778495.410    22778491.517
        43.000          42.750    22778495.137


 119553080.088 7  92985747.978 6  22404192.872    22404195.182    22404193.145
        46.750          41.750    22404195.231


 132575208.026 6 103305364.78941  25228222.758    25228223.214    25228222.043
        37.750           8.750


 129442586.614 6                  24231925.424                    24231925.482
        38.500


 108553665.260 8  84587292.114 8  20657072.079    20657072.280    20657071.601
        52.000          49.750    20657072.534    81062820.488 9  20657073.093
        54.750

  70012978.020 7                  13323025.364
        45.250


 103627712.398 9  80599396.883 7  19440284.850    19440290.395    19440284.698
        54.250          46.750    19440290.797


 108439277.374 8  84341691.859 8  20292922.079    20292925.537    20292922.195
        53.500          51.000    20292925.555


 103446927.048 8  80458753.653 7  19351884.103    19351889.457    19351884.232
        52.750          46.500    19351888.867


 111889156.400 8  87024924.231 8  20894510.675    20894513.886    20894511.153
        51.000          49.500    20894513.689


